[
  {
    "text": "BREAKING: Major 7.1 earthquake hits central Turkey. Buildings collapsed in Malatya province. Rescue teams mobilizing. Casualties feared. #earthquake #Turkey",
    "location_text": "Malatya, Turkey",
    "lat": 38.35,
    "lng": 38.31,
    "timestamp": "2026-02-28T08:12:00Z"
  },
  {
    "text": "Flooding in downtown Houston is insane right now. Water up to car roofs on I-45. DO NOT drive. Stay home. #HoustonFlood",
    "location_text": "Houston, TX, USA",
    "lat": 29.76,
    "lng": -95.37,
    "timestamp": "2026-02-28T09:30:00Z"
  },
  {
    "text": "Wildfire spreading fast near Kelowna BC. Evacuation order for 3 neighborhoods. Smoke visible from 50km away. Air quality hazardous. #BCWildfire",
    "location_text": "Kelowna, BC, Canada",
    "lat": 49.88,
    "lng": -119.49,
    "timestamp": "2026-02-28T10:00:00Z"
  },
  {
    "text": "Category 4 hurricane approaching Barbados. Winds 150mph. All residents urged to seek shelter immediately. Landfall expected in 6 hours.",
    "location_text": "Barbados, Caribbean",
    "lat": 13.19,
    "lng": -59.54,
    "timestamp": "2026-02-28T07:00:00Z"
  },
  {
    "text": "Small tremor felt in San Francisco Bay Area. USGS reports M3.2. No damage reported so far. Residents report shaking lasted 5 seconds.",
    "location_text": "San Francisco, CA, USA",
    "lat": 37.77,
    "lng": -122.42,
    "timestamp": "2026-02-28T11:45:00Z"
  },
  {
    "text": "Flash flood warning issued for Mumbai. Monsoon rains exceeding 200mm in 6 hours. Local trains suspended. Avoid low-lying areas. #MumbaiRains",
    "location_text": "Mumbai, India",
    "lat": 19.08,
    "lng": 72.88,
    "timestamp": "2026-02-28T06:20:00Z"
  },
  {
    "text": "URGENT: Dam breach reported near Brumadinho. Downstream villages being evacuated. Military deployed. Potential for massive mudslide. #Brazil",
    "location_text": "Brumadinho, Minas Gerais, Brazil",
    "lat": -20.14,
    "lng": -44.20,
    "timestamp": "2026-02-28T05:15:00Z"
  },
  {
    "text": "Tornado touched down in Moore, Oklahoma. Multiple structures damaged. Power out for 15,000 homes. Storm chasers tracking second funnel.",
    "location_text": "Moore, OK, USA",
    "lat": 35.34,
    "lng": -97.49,
    "timestamp": "2026-02-28T14:30:00Z"
  },
  {
    "text": "Bushfire out of control in New South Wales. 50,000 hectares burned. 12 homes destroyed. RFS crews exhausted. Air tankers deployed from Victoria.",
    "location_text": "Blue Mountains, NSW, Australia",
    "lat": -33.72,
    "lng": 150.31,
    "timestamp": "2026-02-28T03:00:00Z"
  },
  {
    "text": "Moderate earthquake M5.4 off the coast of Japan. Tsunami advisory issued for Miyagi Prefecture. Coastal residents advised to move to higher ground.",
    "location_text": "Miyagi Prefecture, Japan",
    "lat": 38.27,
    "lng": 141.03,
    "timestamp": "2026-02-28T01:10:00Z"
  },
  {
    "text": "River Rhine flooding in Cologne. Water levels 8m above normal. Old town evacuated. Sandbag operations underway. #Hochwasser #Cologne",
    "location_text": "Cologne, Germany",
    "lat": 50.94,
    "lng": 6.96,
    "timestamp": "2026-02-28T08:45:00Z"
  },
  {
    "text": "Forest fire near Antalya spreading toward resort areas. Tourists being relocated. 3 hotels evacuated. Turkish firefighters requesting international aid.",
    "location_text": "Antalya, Turkey",
    "lat": 36.90,
    "lng": 30.69,
    "timestamp": "2026-02-28T12:30:00Z"
  },
  {
    "text": "Tropical storm making landfall in the Philippines. Heavy rain and flooding in Leyte province. 10,000 people in evacuation centers. #TyphoonPH",
    "location_text": "Leyte, Philippines",
    "lat": 10.41,
    "lng": 124.96,
    "timestamp": "2026-02-28T04:00:00Z"
  },
  {
    "text": "Heatwave emergency in Phoenix. 5th consecutive day above 115°F. Hospitals overwhelmed with heat stroke patients. Cooling centers at max capacity.",
    "location_text": "Phoenix, AZ, USA",
    "lat": 33.45,
    "lng": -112.07,
    "timestamp": "2026-02-28T16:00:00Z"
  },
  {
    "text": "Landslide in Freetown, Sierra Leone. Heavy rains triggered hillside collapse. At least 50 homes buried. Rescue operations hampered by continued rain.",
    "location_text": "Freetown, Sierra Leone",
    "lat": 8.48,
    "lng": -13.23,
    "timestamp": "2026-02-28T02:30:00Z"
  },
  {
    "text": "Minor flooding reported in Venice. Acqua alta reaching 110cm. St. Mark's Square under water. MOSE barriers partially activated.",
    "location_text": "Venice, Italy",
    "lat": 45.44,
    "lng": 12.34,
    "timestamp": "2026-02-28T09:15:00Z"
  },
  {
    "text": "Earthquake swarm near Reykjavik. 200+ tremors in 24 hours. Largest M4.8. Volcanic eruption risk elevated. Civil protection on alert. #Iceland",
    "location_text": "Reykjavik, Iceland",
    "lat": 64.15,
    "lng": -21.94,
    "timestamp": "2026-02-28T10:20:00Z"
  },
  {
    "text": "Cyclone Amphan aftermath: Kolkata still without power 48 hours later. Trees blocking major roads. Clean water shortage. Aid convoys stuck.",
    "location_text": "Kolkata, India",
    "lat": 22.57,
    "lng": 88.36,
    "timestamp": "2026-02-28T07:45:00Z"
  },
  {
    "text": "Grass fire in California wine country. Napa Valley vineyards threatened. Mandatory evacuation for Calistoga. Smoke advisory for entire Bay Area.",
    "location_text": "Napa Valley, CA, USA",
    "lat": 38.50,
    "lng": -122.27,
    "timestamp": "2026-02-28T15:00:00Z"
  },
  {
    "text": "Severe thunderstorm with golf-ball sized hail hitting Dallas-Fort Worth. Thousands of cars damaged. Airport closed. Multiple injuries reported.",
    "location_text": "Dallas, TX, USA",
    "lat": 32.78,
    "lng": -96.80,
    "timestamp": "2026-02-28T13:00:00Z"
  },
  {
    "text": "Tsunami warning cancelled for Chile after M6.8 offshore quake. Initial scare caused evacuations in Valparaiso. All clear now. No casualties.",
    "location_text": "Valparaiso, Chile",
    "lat": -33.05,
    "lng": -71.62,
    "timestamp": "2026-02-28T06:00:00Z"
  },
  {
    "text": "CRITICAL: Chemical plant explosion in Tianjin port area. Massive fireball visible for miles. Emergency services overwhelmed. Nearby residents told to shelter in place.",
    "location_text": "Tianjin, China",
    "lat": 39.08,
    "lng": 117.20,
    "timestamp": "2026-02-28T00:45:00Z"
  },
  {
    "text": "Flooding continues in Bangladesh. Sylhet district 80% underwater. 500,000 displaced. Food and medicine running critically low. International aid needed urgently.",
    "location_text": "Sylhet, Bangladesh",
    "lat": 24.90,
    "lng": 91.87,
    "timestamp": "2026-02-28T03:30:00Z"
  },
  {
    "text": "Dust storm reducing visibility to zero in Riyadh. Highway pileups reported. Schools closed. Stay indoors if possible. #SandStorm #Riyadh",
    "location_text": "Riyadh, Saudi Arabia",
    "lat": 24.71,
    "lng": 46.68,
    "timestamp": "2026-02-28T11:00:00Z"
  },
  {
    "text": "Wildfire smoke advisory for Portland Oregon. AQI over 300. N95 masks recommended. Outdoor activities suspended. Schools switching to remote.",
    "location_text": "Portland, OR, USA",
    "lat": 45.52,
    "lng": -122.68,
    "timestamp": "2026-02-28T14:15:00Z"
  },
  {
    "text": "M6.2 earthquake rocks Haiti. Port-au-Prince buildings damaged. Hospitals report incoming casualties. UN coordinating emergency response. #HaitiEarthquake",
    "location_text": "Port-au-Prince, Haiti",
    "lat": 18.54,
    "lng": -72.34,
    "timestamp": "2026-02-28T05:45:00Z"
  },
  {
    "text": "River levels rising dangerously in Prague. Vltava expected to crest tomorrow. Flood barriers installed along Old Town. Museums moving collections upstairs.",
    "location_text": "Prague, Czech Republic",
    "lat": 50.08,
    "lng": 14.44,
    "timestamp": "2026-02-28T08:00:00Z"
  },
  {
    "text": "Avalanche in Swiss Alps near Zermatt. Ski resort evacuated. 4 hikers missing. Helicopter rescue delayed by weather. Search dogs deployed.",
    "location_text": "Zermatt, Switzerland",
    "lat": 46.02,
    "lng": 7.75,
    "timestamp": "2026-02-28T09:00:00Z"
  },
  {
    "text": "Lightning-sparked fire in Yosemite National Park. 500 acres burned. Park partially closed. Campers evacuated from Glacier Point area. #YosemiteFire",
    "location_text": "Yosemite National Park, CA, USA",
    "lat": 37.87,
    "lng": -119.54,
    "timestamp": "2026-02-28T17:00:00Z"
  },
  {
    "text": "Winter storm dropping 60cm of snow in Montreal. 200 car accidents today. Power outages affecting 80,000 homes. Metro delays across all lines.",
    "location_text": "Montreal, QC, Canada",
    "lat": 45.50,
    "lng": -73.57,
    "timestamp": "2026-02-28T13:30:00Z"
  },
  {
    "text": "Volcanic eruption at Mount Etna. Lava flow heading toward Catania suburbs. Airport closed. Ash cloud reaching 10km altitude. Flights diverted.",
    "location_text": "Mount Etna, Sicily, Italy",
    "lat": 37.75,
    "lng": 14.99,
    "timestamp": "2026-02-28T02:00:00Z"
  },
  {
    "text": "Flooding in Jakarta after overnight downpour. Major intersections impassable. Gov declares state of emergency. Schools and offices closed.",
    "location_text": "Jakarta, Indonesia",
    "lat": -6.21,
    "lng": 106.85,
    "timestamp": "2026-02-28T04:30:00Z"
  },
  {
    "text": "Just felt a strong earthquake here in Mexico City. Things fell off shelves. Building swaying for 30+ seconds. Everyone running outside. Scary.",
    "location_text": "Mexico City, Mexico",
    "lat": 19.43,
    "lng": -99.13,
    "timestamp": "2026-02-28T12:00:00Z"
  },
  {
    "text": "Drought emergency declared in Cape Town. Day Zero approaching. Residents limited to 50 liters per day. Agriculture sector devastated. #CapeTownDrought",
    "location_text": "Cape Town, South Africa",
    "lat": -33.93,
    "lng": 18.42,
    "timestamp": "2026-02-28T06:30:00Z"
  },
  {
    "text": "Blizzard conditions in Chicago. O'Hare airport closed. Wind chill -40°F. Frostbite risk in minutes. Warming centers open citywide. Stay indoors.",
    "location_text": "Chicago, IL, USA",
    "lat": 41.88,
    "lng": -87.63,
    "timestamp": "2026-02-28T15:30:00Z"
  },
  {
    "text": "Mudslide blocks highway near Bogota Colombia. Several vehicles trapped. Rain continues. Emergency crews working to clear debris. Detours in place.",
    "location_text": "Bogota, Colombia",
    "lat": 4.71,
    "lng": -74.07,
    "timestamp": "2026-02-28T10:45:00Z"
  },
  {
    "text": "Flooding in Nairobi's Mathare slum. Homes washed away overnight. At least 20 missing. Red Cross setting up emergency shelters. Clean water needed.",
    "location_text": "Nairobi, Kenya",
    "lat": -1.29,
    "lng": 36.82,
    "timestamp": "2026-02-28T01:30:00Z"
  },
  {
    "text": "Fire raging through Amazon rainforest near Manaus. Satellite imagery shows 200km smoke plume. Indigenous communities at risk. Deforestation fueling spread.",
    "location_text": "Manaus, Amazonas, Brazil",
    "lat": -3.12,
    "lng": -60.02,
    "timestamp": "2026-02-28T08:30:00Z"
  },
  {
    "text": "Storm surge flooding coastal areas of Vietnam. Da Nang beachfront under 1.5m water. Hotels evacuated. Typhoon center 200km offshore and approaching.",
    "location_text": "Da Nang, Vietnam",
    "lat": 16.05,
    "lng": 108.22,
    "timestamp": "2026-02-28T03:45:00Z"
  },
  {
    "text": "Strong aftershock M5.8 in Turkey following this morning's main quake. More buildings collapsed. Rescue workers forced to pause operations briefly.",
    "location_text": "Malatya, Turkey",
    "lat": 38.35,
    "lng": 38.31,
    "timestamp": "2026-02-28T11:30:00Z"
  },
  {
    "text": "Ice storm knocking down power lines across Tennessee. 200,000 without electricity. Roads coated in ice. National Guard activated. Multiple fatalities on highways.",
    "location_text": "Nashville, TN, USA",
    "lat": 36.16,
    "lng": -86.78,
    "timestamp": "2026-02-28T12:15:00Z"
  },
  {
    "text": "Earthquake M4.5 near Athens Greece. Minor damage to older buildings. No casualties. Schools evacuated as precaution. Aftershock sequence expected.",
    "location_text": "Athens, Greece",
    "lat": 37.98,
    "lng": 23.73,
    "timestamp": "2026-02-28T09:50:00Z"
  },
  {
    "text": "Glacial lake outburst flood (GLOF) in Nepal. Rapid water surge destroying bridges in Solukhumbu district. Trekkers stranded near Everest base camp.",
    "location_text": "Solukhumbu, Nepal",
    "lat": 27.79,
    "lng": 86.71,
    "timestamp": "2026-02-28T07:15:00Z"
  },
  {
    "text": "Peat fires burning underground in Sumatra. Surface fires spreading to palm oil plantations. Thick haze covering Singapore. PSI readings unhealthy.",
    "location_text": "Riau, Sumatra, Indonesia",
    "lat": 1.74,
    "lng": 101.75,
    "timestamp": "2026-02-28T05:00:00Z"
  },
  {
    "text": "Derecho storm ripping through Iowa. 100mph straight-line winds. Grain silos toppled. Entire corn crop flattened in affected counties. State of emergency.",
    "location_text": "Cedar Rapids, IA, USA",
    "lat": 41.98,
    "lng": -91.67,
    "timestamp": "2026-02-28T14:00:00Z"
  },
  {
    "text": "Heavy rains causing sewage overflow in London. Thames Barrier closed. Underground stations flooded. Commuters stranded. TfL suspending multiple lines.",
    "location_text": "London, UK",
    "lat": 51.51,
    "lng": -0.13,
    "timestamp": "2026-02-28T07:30:00Z"
  },
  {
    "text": "Wildfire approaching Lake Tahoe from the south. Caldor Fire jumping containment lines. Mandatory evacuation for South Lake Tahoe. 30,000 residents fleeing.",
    "location_text": "South Lake Tahoe, CA, USA",
    "lat": 38.94,
    "lng": -119.98,
    "timestamp": "2026-02-28T16:30:00Z"
  },
  {
    "text": "Cyclone Idai aftermath in Mozambique. Beira 90% destroyed. Cholera outbreak confirmed. WHO deploying medical teams. Death toll rising.",
    "location_text": "Beira, Mozambique",
    "lat": -19.84,
    "lng": 34.87,
    "timestamp": "2026-02-28T04:15:00Z"
  },
  {
    "text": "Hailstorm devastating crops in Punjab, India. Farmers report total loss of wheat harvest. Grapefruit-sized hail damaging roofs. Insurance claims flooding in.",
    "location_text": "Ludhiana, Punjab, India",
    "lat": 30.90,
    "lng": 75.86,
    "timestamp": "2026-02-28T10:30:00Z"
  },
  {
    "text": "Small brush fire near residential area in San Diego. 2 acres, 50% contained. One home with minor damage. No injuries. Cause under investigation.",
    "location_text": "San Diego, CA, USA",
    "lat": 32.72,
    "lng": -117.16,
    "timestamp": "2026-02-28T17:30:00Z"
  },
  {
    "text": "Flooding receding in Bangkok after 3 days. Cleanup operations beginning. Damage assessment underway. Boil water advisory still in effect for 6 districts.",
    "location_text": "Bangkok, Thailand",
    "lat": 13.76,
    "lng": 100.50,
    "timestamp": "2026-02-28T06:45:00Z"
  },
  {
    "text": "Earthquake M7.8 strikes near Kathmandu. Major structural collapse. Multiple hospitals damaged and unable to operate. International search and rescue teams requested.",
    "location_text": "Kathmandu, Nepal",
    "lat": 27.72,
    "lng": 85.32,
    "timestamp": "2026-02-28T00:20:00Z"
  },
  {
    "text": "Record rainfall in Seoul. Han River at highest level in 50 years. Subways flooded. Government activating all emergency shelters. Military on standby.",
    "location_text": "Seoul, South Korea",
    "lat": 37.57,
    "lng": 126.98,
    "timestamp": "2026-02-28T02:45:00Z"
  },
  {
    "text": "Wildfire in Sardinia Italy destroys 20,000 hectares of forest. EU activating Civil Protection Mechanism. Water bombers from France and Spain arriving.",
    "location_text": "Oristano, Sardinia, Italy",
    "lat": 39.91,
    "lng": 8.59,
    "timestamp": "2026-02-28T11:15:00Z"
  },
  {
    "text": "Tropical depression forming in Gulf of Mexico. Could strengthen to hurricane by Thursday. Gulf coast states beginning preparations. Oil rigs evacuating workers.",
    "location_text": "Gulf of Mexico",
    "lat": 26.00,
    "lng": -90.00,
    "timestamp": "2026-02-28T13:45:00Z"
  },
  {
    "text": "Aftershock panic in Malatya. People refusing to enter buildings. Tent cities growing. Temperature dropping to -5C tonight. Heaters and blankets desperately needed.",
    "location_text": "Malatya, Turkey",
    "lat": 38.35,
    "lng": 38.31,
    "timestamp": "2026-02-28T16:45:00Z"
  },
  {
    "text": "Flash floods in Jeddah Saudi Arabia. Cars floating through streets. Shopping malls flooded. Airport runways underwater. All flights cancelled until further notice.",
    "location_text": "Jeddah, Saudi Arabia",
    "lat": 21.49,
    "lng": 39.19,
    "timestamp": "2026-02-28T08:15:00Z"
  },
  {
    "text": "Moderate earthquake felt across Los Angeles. M4.2 centered near Pasadena. Some cracked walls reported. No major damage. Caltech monitoring for aftershocks.",
    "location_text": "Pasadena, CA, USA",
    "lat": 34.15,
    "lng": -118.14,
    "timestamp": "2026-02-28T18:00:00Z"
  },
  {
    "text": "Heavy snowfall isolating villages in northern Pakistan. Avalanche risk extreme. Army helicopters unable to fly due to weather. Food supplies running low.",
    "location_text": "Chitral, Pakistan",
    "lat": 35.85,
    "lng": 71.79,
    "timestamp": "2026-02-28T01:00:00Z"
  },
  {
    "text": "UPDATE: Houston flooding death toll rises to 4. Coast Guard conducting rooftop rescues. Shelters at NRG Center reaching capacity. Donations pouring in.",
    "location_text": "Houston, TX, USA",
    "lat": 29.76,
    "lng": -95.37,
    "timestamp": "2026-02-28T12:45:00Z"
  }
]
